[
  {
    "name": "Aladdin CharBurger",
    "fulladdress": "4135 University Wy NE, Seattle, WA 98105",
    "phone": "(206) 545-3858",
    "reviewCount": 184,
    "averageRating": 4.7,
    "googleMapsURL": "https://www.google.com/maps?cid=5984883804945272418",
    "latitude": 47.657936299999996,
    "longitude": -122.31349709999999,
    "website": "https://aladdincharburger.wixsite.com/website",
    "openingHours": "Sunday: [11 AM-1:30 AM], Monday: [11 AM-1:30 AM], Tuesday: [11 AM-1:30 AM], Wednesday: [11 AM-1:30 AM], Thursday: [11 AM-1:30 AM], Friday: [11 AM-1:30 AM], Saturday: [11 AM-1:30 AM]"
  },
  {
    "name": "Saigon Deli",
    "description": "Buzzing, relaxed spot known for Vietnamese baguette sandwiches, plus pho, rice vermicelli & rolls.",
    "fulladdress": "4142 Brooklyn Ave NE, Seattle, WA 98105",
    "phone": "(206) 634-2866",
    "reviewCount": 312,
    "averageRating": 4.5,
    "googleMapsURL": "https://www.google.com/maps?cid=9784654895111598298",
    "latitude": 47.6581596,
    "longitude": -122.3142055,
    "website": "http://saigondeliuw.com/",
    "openingHours": "Sunday: [11:30 AM-8 PM], Monday: [11 AM-8 PM], Tuesday: [11 AM-8 PM], Wednesday: [11 AM-8 PM], Thursday: [11 AM-8 PM], Friday: [11 AM-8 PM], Saturday: [11:30 AM-8 PM]"
  },
  {
    "name": "The BoB",
    "description": "Unassuming counter-serve eatery selling familiar Korean dishes for dine-in or takeout.",
    "fulladdress": "4131 University Wy NE, Seattle, WA 98105",
    "phone": "(206) 633-6582",
    "reviewCount": 201,
    "averageRating": 4.2,
    "googleMapsURL": "https://www.google.com/maps?cid=16600296480724782315",
    "latitude": 47.657781899999996,
    "longitude": -122.3135161,
    "website": "http://thebob-seattle.com/",
    "openingHours": "Sunday: [11 AM-9 PM], Monday: [11 AM-9 PM], Tuesday: [11 AM-9 PM], Wednesday: [11 AM-9 PM], Thursday: [11 AM-9 PM], Friday: [11 AM-9 PM], Saturday: [11 AM-9 PM]"
  },
  {
    "name": "Burger and Kabob Hut",
    "description": "Late-night standby serves up burgers, kebabs & other global grub at the counter in unfussy environs.",
    "fulladdress": "4142 University Wy NE, Seattle, WA 98105",
    "phone": "(206) 632-0324",
    "reviewCount": 2263,
    "averageRating": 4.3,
    "googleMapsURL": "https://www.google.com/maps?cid=11849889612199050931",
    "latitude": 47.6580787,
    "longitude": -122.31303079999999,
    "openingHours": "Sunday: [12 PM-3 AM], Monday: [12 PM-2 AM], Tuesday: [12 PM-2 AM], Wednesday: [12 PM-2 AM], Thursday: [12 PM-2 AM], Friday: [12 PM-3 AM], Saturday: [12 PM-3 AM]"
  },
  {
    "name": "CALL A CHICKEN - University of Washington",
    "fulladdress": "4237 University Wy NE, Seattle, WA 98105",
    "phone": "(206) 545-6979",
    "reviewCount": 291,
    "averageRating": 4,
    "googleMapsURL": "https://www.google.com/maps?cid=5443400422109337459",
    "latitude": 47.6594176,
    "longitude": -122.31342199999999,
    "openingHours": "Sunday: [11 AM-11 PM], Monday: [11 AM-11 PM], Tuesday: [11 AM-11 PM], Wednesday: [11 AM-11 PM], Thursday: [11 AM-11 PM], Friday: [11 AM-11 PM], Saturday: [11 AM-11 PM]"
  },
  {
    "name": "MOD Pizza",
    "description": "Counter-serve chain with industrial-chic decor known for build-your-own pizza.",
    "fulladdress": "1414 NE 42nd St Suite 103B, Seattle, WA 98105",
    "phone": "(206) 632-7111",
    "reviewCount": 746,
    "averageRating": 4.3,
    "googleMapsURL": "https://www.google.com/maps?cid=11476213845504498211",
    "latitude": 47.6584338,
    "longitude": -122.3124845,
    "website": "https://modpizza.com/locations/u-district/?utm_source=google&utm_medium=yext",
    "openingHours": "Sunday: [10:30 AM-10 PM], Monday: [10:30 AM-10 PM], Tuesday: [10:30 AM-10 PM], Wednesday: [10:30 AM-10 PM], Thursday: [10:30 AM-11 PM], Friday: [10:30 AM-11 PM], Saturday: [10:30 AM-11 PM]"
  },
  {
    "name": "Dick's Drive-In",
    "description": "Part of an old-school chain of fast-food spots offering burgers, fries & hand-dipped shakes.",
    "fulladdress": "111 NE 45th St, Seattle, WA 98105",
    "phone": "(206) 632-5125",
    "reviewCount": 8621,
    "averageRating": 4.6,
    "googleMapsURL": "https://www.google.com/maps?cid=3317718277705693267",
    "latitude": 47.6610617,
    "longitude": -122.3277773,
    "website": "http://www.ddir.com/",
    "openingHours": "Sunday: [10:30 AM-2 AM], Monday: [10:30 AM-2 AM], Tuesday: [10:30 AM-2 AM], Wednesday: [10:30 AM-2 AM], Thursday: [10:30 AM-2 AM], Friday: [10:30 AM-2 AM], Saturday: [10:30 AM-2 AM]"
  },
  {
    "name": "Chipotle Mexican Grill",
    "description": "Fast-food chain offering Mexican fare, including design-your-own burritos, tacos & bowls.",
    "fulladdress": "4229 University Wy NE, Seattle, WA 98105",
    "phone": "(206) 547-4644",
    "reviewCount": 1007,
    "averageRating": 3.4,
    "googleMapsURL": "https://www.google.com/maps?cid=1267471933961520494",
    "latitude": 47.659239899999996,
    "longitude": -122.3134022,
    "website": "https://locations.chipotle.com/wa/seattle/4229-university-way-ne?utm_source=google&utm_medium=yext&utm_campaign=yext_listings",
    "openingHours": "Sunday: [10:45 AM-11 PM], Monday: [10:45 AM-11 PM], Tuesday: [10:45 AM-11 PM], Wednesday: [10:45 AM-11 PM], Thursday: [10:45 AM-11 PM], Friday: [10:45 AM-11 PM], Saturday: [10:45 AM-11 PM]"
  },
  {
    "name": "Sultan Gyros Grill",
    "description": "Mediterranean comfort foods feature at this small counter serve lined with tapestries.",
    "fulladdress": "4222 University Wy NE, Seattle, WA 98105",
    "phone": "(206) 632-7844",
    "reviewCount": 700,
    "averageRating": 4.5,
    "googleMapsURL": "https://www.google.com/maps?cid=78687972037870545",
    "latitude": 47.6590237,
    "longitude": -122.31290349999999,
    "openingHours": "Sunday: [11 AM-1:30 AM], Monday: [11 AM-1:30 AM], Tuesday: [11 AM-1:30 AM], Wednesday: [11 AM-1:30 AM], Thursday: [11 AM-1:30 AM], Friday: [11 AM-2 AM], Saturday: [11 AM-2 AM]"
  },
  {
    "name": "Pho Shizzle",
    "description": "Pho, banh mi & other Vietnamese staples in a simple storefront with a neon-accented dining room.",
    "fulladdress": "4235 University Wy NE, Seattle, WA 98105",
    "phone": "(206) 632-1078",
    "reviewCount": 650,
    "averageRating": 4.2,
    "googleMapsURL": "https://www.google.com/maps?cid=2014308987720994992",
    "latitude": 47.659345599999995,
    "longitude": -122.3134032,
    "website": "https://www.phoshizzlerestaurant.com/",
    "openingHours": "Sunday: [10 AM-10 PM], Monday: [10 AM-10 PM], Tuesday: [10 AM-10 PM], Wednesday: [10 AM-10 PM], Thursday: [10 AM-10 PM], Friday: [10 AM-10 PM], Saturday: [10 AM-10 PM]"
  },
  {
    "name": "Aladdin Gyro-Cery & Deli",
    "description": "No-frills Mediterranean staple for hearty gyros, falafel & shawarma, plus Turkish coffee.",
    "fulladdress": "4139 University Wy NE, Seattle, WA 98105",
    "phone": "(206) 632-5253",
    "reviewCount": 2007,
    "averageRating": 4.5,
    "googleMapsURL": "https://www.google.com/maps?cid=15542653725248560405",
    "latitude": 47.657981899999996,
    "longitude": -122.31336189999999,
    "website": "http://www.aladdingyro.com/",
    "openingHours": "Sunday: [10 AM-2 AM], Monday: [10 AM-2 AM], Tuesday: [10 AM-2 AM], Wednesday: [10 AM-2 AM], Thursday: [10 AM-2 AM], Friday: [10 AM-2:30 AM], Saturday: [10 AM-2:30 AM]"
  },
  {
    "name": "BB's Teriyaki Grill",
    "description": "A menu of build-your-own plates focused on teriyaki & Asian fare in a modern, rustic setting.",
    "fulladdress": "4221 University Wy NE, Seattle, WA 98105",
    "phone": "(206) 876-9105",
    "reviewCount": 422,
    "averageRating": 4.2,
    "googleMapsURL": "https://www.google.com/maps?cid=6196171775975576224",
    "latitude": 47.6589834,
    "longitude": -122.3135166,
    "website": "http://bbsteriyaki.com/",
    "openingHours": "Sunday: [11 AM-10 PM], Monday: [11 AM-10 PM], Tuesday: [11 AM-10 PM], Wednesday: [11 AM-10 PM], Thursday: [11 AM-10 PM], Friday: [11 AM-10 PM], Saturday: [11 AM-10 PM]"
  },
  {
    "name": "Kai's Thai Street Food And Bar",
    "fulladdress": "1312 NE 43rd St, Seattle, WA 98105",
    "phone": "(206) 547-2784",
    "reviewCount": 152,
    "averageRating": 4.2,
    "googleMapsURL": "https://www.google.com/maps?cid=15281051179350304665",
    "latitude": 47.6598994,
    "longitude": -122.3136401,
    "website": "http://www.kaithaistreetfoodandbars.com/",
    "openingHours": "Sunday: [4-10 PM], Monday: [11 AM-11 PM], Tuesday: [11 AM-11 PM], Wednesday: [11 AM-11 PM], Thursday: [11 AM-11 PM], Friday: [11 AM-11 PM], Saturday: [12-10 PM]"
  },
  {
    "name": "Pho Shizzle",
    "description": "Pho, banh mi & other Vietnamese staples in a simple storefront with a neon-accented dining room.",
    "fulladdress": "4235 University Wy NE, Seattle, WA 98105",
    "phone": "(206) 632-1078",
    "reviewCount": 650,
    "averageRating": 4.2,
    "googleMapsURL": "https://www.google.com/maps?cid=2014308987720994992",
    "latitude": 47.659345599999995,
    "longitude": -122.3134032,
    "website": "https://www.phoshizzlerestaurant.com/",
    "openingHours": "Sunday: [10 AM-10 PM], Monday: [10 AM-10 PM], Tuesday: [10 AM-10 PM], Wednesday: [10 AM-10 PM], Thursday: [10 AM-10 PM], Friday: [10 AM-10 PM], Saturday: [10 AM-10 PM]"
  },
  {
    "name": "Thanh Vị",
    "description": "Family-run spot offering a big menu of Vietnamese specialties, including less-familiar options.",
    "fulladdress": "4226 University Wy NE, Seattle, WA 98105",
    "phone": "(206) 633-7867",
    "reviewCount": 412,
    "averageRating": 4.3,
    "googleMapsURL": "https://www.google.com/maps?cid=15108797761941827617",
    "latitude": 47.6591327,
    "longitude": -122.3128986,
    "website": "http://thanhviudistrict.com/",
    "openingHours": "Sunday: [12-9 PM], Monday: [10:30 AM-9:30 PM], Tuesday: [10:30 AM-9:30 PM], Wednesday: [10:30 AM-9:30 PM], Thursday: [10:30 AM-9:30 PM], Friday: [10:30 AM-9:30 PM], Saturday: [11 AM-9 PM]"
  },
  {
    "name": "Thai 65",
    "description": "Restaurant with a mix of traditional Thai dishes, from noodles to curries plus vegetarian options.",
    "fulladdress": "4214 University Wy NE, Seattle, WA 98105",
    "phone": "(206) 632-6542",
    "reviewCount": 176,
    "averageRating": 3.4,
    "googleMapsURL": "https://www.google.com/maps?cid=13354047425207033561",
    "latitude": 47.6587544,
    "longitude": -122.3129889,
    "openingHours": "Sunday: [11 AM-10 PM], Monday: [Closed], Tuesday: [11 AM-10 PM], Wednesday: [11 AM-10 PM], Thursday: [11 AM-10 PM], Friday: [11 AM-10 PM], Saturday: [11 AM-10 PM]"
  },
  {
    "name": "NORTH Noodles N Dumplings",
    "fulladdress": "4311 University Wy NE, Seattle, WA 98105",
    "phone": "(206) 545-6823",
    "reviewCount": 75,
    "averageRating": 4.7,
    "googleMapsURL": "https://www.google.com/maps?cid=5544556639162310813",
    "latitude": 47.6601895,
    "longitude": -122.3134455,
    "website": "https://chowbusmkt.wixsite.com/north",
    "openingHours": "Sunday: [12-3:30 PM, 5-10 PM], Monday: [12-3:30 PM, 5-10 PM], Tuesday: [Closed], Wednesday: [12-3:30 PM, 5-10 PM], Thursday: [12-3:30 PM, 5-10 PM], Friday: [12-3:30 PM, 5-10 PM], Saturday: [12-3:30 PM, 5-10 PM]"
  },
  {
    "name": "CALL A CHICKEN - University of Washington",
    "fulladdress": "4237 University Wy NE, Seattle, WA 98105",
    "phone": "(206) 545-6979",
    "reviewCount": 291,
    "averageRating": 4,
    "googleMapsURL": "https://www.google.com/maps?cid=5443400422109337459",
    "latitude": 47.6594176,
    "longitude": -122.31342199999999,
    "openingHours": "Sunday: [11 AM-11 PM], Monday: [11 AM-11 PM], Tuesday: [11 AM-11 PM], Wednesday: [11 AM-11 PM], Thursday: [11 AM-11 PM], Friday: [11 AM-11 PM], Saturday: [11 AM-11 PM]"
  },
  {
    "name": "BB's Teriyaki Grill",
    "description": "A menu of build-your-own plates focused on teriyaki & Asian fare in a modern, rustic setting.",
    "fulladdress": "4221 University Wy NE, Seattle, WA 98105",
    "phone": "(206) 876-9105",
    "reviewCount": 422,
    "averageRating": 4.2,
    "googleMapsURL": "https://www.google.com/maps?cid=6196171775975576224",
    "latitude": 47.6589834,
    "longitude": -122.3135166,
    "website": "http://bbsteriyaki.com/",
    "openingHours": "Sunday: [11 AM-10 PM], Monday: [11 AM-10 PM], Tuesday: [11 AM-10 PM], Wednesday: [11 AM-10 PM], Thursday: [11 AM-10 PM], Friday: [11 AM-10 PM], Saturday: [11 AM-10 PM]"
  },
  {
    "name": "Chi Mac - Seattle",
    "description": "Casual, late-night spot featuring Korean fried chicken & wings in ranging flavors, plus draft brews.",
    "fulladdress": "4525 University Wy NE, Seattle, WA 98105",
    "reviewCount": 610,
    "averageRating": 4.2,
    "googleMapsURL": "https://www.google.com/maps?cid=7653186059162375658",
    "latitude": 47.6620804,
    "longitude": -122.31344279999999,
    "website": "http://www.chimacseattle.com/",
    "openingHours": "Sunday: [11 AM-12 AM], Monday: [11 AM-2 PM, 5-10 PM], Tuesday: [11 AM-2 PM, 5-10 PM], Wednesday: [11 AM-2 PM, 5-10 PM], Thursday: [11 AM-2 PM, 5-10 PM], Friday: [11 AM-2 PM, 5 PM-12 AM], Saturday: [11 AM-2 PM, 5 PM-12 AM]"
  },
  {
    "name": "Supreme",
    "fulladdress": "4529 University Wy NE, Seattle, WA 98105",
    "phone": "(206) 453-3076",
    "reviewCount": 291,
    "averageRating": 4.3,
    "googleMapsURL": "https://www.google.com/maps?cid=6058040758143847322",
    "latitude": 47.6621515,
    "longitude": -122.31341689999999,
    "website": "https://www.supreme.bar/",
    "openingHours": "Sunday: [11 AM-12 AM], Monday: [11 AM-12 AM], Tuesday: [11 AM-12 AM], Wednesday: [11 AM-12 AM], Thursday: [11 AM-12 AM], Friday: [11 AM-1 AM], Saturday: [11 AM-1 AM]"
  },
  {
    "name": "Costas Restaurant",
    "description": "Family-run, brick-walled mainstay serving Greek fare plus pasta, American eats & all-day breakfast.",
    "fulladdress": "4559 University Wy NE, Seattle, WA 98105",
    "phone": "(206) 633-2751",
    "reviewCount": 739,
    "averageRating": 4.1,
    "googleMapsURL": "https://www.google.com/maps?cid=10950273300297513091",
    "latitude": 47.6629801,
    "longitude": -122.3133074,
    "website": "https://www.costasseattle.com/",
    "openingHours": "Sunday: [7:30 AM-9 PM], Monday: [7:30 AM-9 PM], Tuesday: [7:30 AM-9 PM], Wednesday: [7:30 AM-9 PM], Thursday: [7:30 AM-9 PM], Friday: [7:30 AM-9 PM], Saturday: [7:30 AM-9 PM]"
  },
  {
    "name": "Thai Tom",
    "description": "Popular, cash-only Thai restaurant serving spicy wok creations in a no-frills dining room.",
    "fulladdress": "4543 University Wy NE, Seattle, WA 98105",
    "phone": "(206) 548-9548",
    "reviewCount": 1840,
    "averageRating": 4.3,
    "googleMapsURL": "https://www.google.com/maps?cid=4837175882708946003",
    "latitude": 47.6625436,
    "longitude": -122.3132366,
    "website": "https://thaitomseattle.com/",
    "openingHours": "Sunday: [12-9 PM], Monday: [11:30 AM-9 PM], Tuesday: [11:30 AM-9 PM], Wednesday: [11:30 AM-9 PM], Thursday: [11:30 AM-9 PM], Friday: [11:30 AM-9 PM], Saturday: [11:30 AM-9 PM]"
  },
  {
    "name": "Just Burgers Udistrict",
    "description": "Busy location serving New American diner fare featuring burgers, shakes & sweet-potato fries.",
    "fulladdress": "4510 University Wy NE, Seattle, WA 98105",
    "phone": "(425) 276-1824",
    "reviewCount": 1145,
    "averageRating": 4.3,
    "googleMapsURL": "https://www.google.com/maps?cid=8486731664626640033",
    "latitude": 47.6616516,
    "longitude": -122.3127679,
    "website": "http://justburgersco.com/",
    "openingHours": "Sunday: [11 AM-11 PM], Monday: [11 AM-11 PM], Tuesday: [11 AM-11 PM], Wednesday: [11 AM-11 PM], Thursday: [11 AM-11 PM], Friday: [11 AM-11 PM], Saturday: [11 AM-11 PM]"
  },
  {
    "name": "Taste of Xi'an",
    "description": "Hot pots, BBQ & pulled noodles are among the specialties of this casual, modern Chinese restaurant.",
    "fulladdress": "4523 University Wy NE, Seattle, WA 98105",
    "phone": "(206) 231-9999",
    "reviewCount": 1233,
    "averageRating": 4.5,
    "googleMapsURL": "https://www.google.com/maps?cid=4917193828343077813",
    "latitude": 47.661968599999994,
    "longitude": -122.3133513,
    "website": "http://taste-of-xian.com/",
    "openingHours": "Sunday: [11 AM-9:30 PM], Monday: [11 AM-3:30 PM, 5-9:30 PM], Tuesday: [11 AM-3:30 PM, 5-9:30 PM], Wednesday: [11 AM-3:30 PM, 5-9:30 PM], Thursday: [11 AM-3:30 PM, 5-9:30 PM], Friday: [11 AM-3:30 PM, 5-9:30 PM], Saturday: [11 AM-9:30 PM]"
  },
  {
    "name": "Jack in the Box",
    "description": "Burgers, chicken, tacos & breakfast items fill out the menu at this fast-food chain.",
    "fulladdress": "4749 University Wy NE, Seattle, WA 98105",
    "phone": "(206) 525-5599",
    "reviewCount": 965,
    "averageRating": 3.3,
    "googleMapsURL": "https://www.google.com/maps?cid=8839435479313829135",
    "latitude": 47.6647578,
    "longitude": -122.31335519999999,
    "website": "https://locations.jackinthebox.com/us/wa/seattle/4749-university-way-ne?utm_source=google&utm_medium=local&utm_campaign=google-local",
    "openingHours": "Sunday: [6 AM-12 AM], Monday: [6 AM-12 AM], Tuesday: [6 AM-12 AM], Wednesday: [6 AM-12 AM], Thursday: [6 AM-12 AM], Friday: [6 AM-12 AM], Saturday: [6 AM-12 AM]"
  },
  {
    "name": "Aladdin Falafel Corner",
    "description": "Storefront choice with ethnic decor accents serving Middle Eastern specialties till the wee hours.",
    "fulladdress": "4541 University Wy NE, Seattle, WA 98105",
    "phone": "(206) 548-9539",
    "reviewCount": 590,
    "averageRating": 4.4,
    "googleMapsURL": "https://www.google.com/maps?cid=1258123292263757478",
    "latitude": 47.6624768,
    "longitude": -122.3132785,
    "website": "https://www.aladdinfalafel.com/",
    "openingHours": "Sunday: [11 AM-11 PM], Monday: [11 AM-11 PM], Tuesday: [11 AM-11 PM], Wednesday: [11 AM-11 PM], Thursday: [11 AM-11 PM], Friday: [11 AM-2 AM], Saturday: [11 AM-2 AM]"
  },
  {
    "name": "Local Point",
    "description": "UW campus dining option, also open to the public, features social spaces & 5 restaurants.",
    "fulladdress": "1245 NE Campus Pkwy, Seattle, WA 98105",
    "reviewCount": 319,
    "averageRating": 3.1,
    "googleMapsURL": "https://www.google.com/maps?cid=11189829410081075450",
    "latitude": 47.6558248,
    "longitude": -122.31478469999999,
    "website": "https://hfs.uw.edu/Eat/dining-hours/Local-Point",
    "openingHours": "Sunday: [9 AM-8 PM], Monday: [7:30 AM-8 PM], Tuesday: [7:30 AM-8 PM], Wednesday: [7:30 AM-8 PM], Thursday: [7:30 AM-8 PM], Friday: [7:30 AM-8 PM], Saturday: [9 AM-8 PM]"
  },
  {
    "name": "Center Table",
    "fulladdress": "4294 Little Canoe Channel NE, Seattle, WA 98195",
    "phone": "(206) 616-9147",
    "reviewCount": 113,
    "averageRating": 3.1,
    "googleMapsURL": "https://www.google.com/maps?cid=14760902344707709356",
    "latitude": 47.6598927,
    "longitude": -122.30438059999999,
    "website": "https://hfs.uw.edu/Eat/dining-hours/Center-Table",
    "openingHours": "Sunday: [8:30 AM-8 PM], Monday: [7:30 AM-8 PM], Tuesday: [7:30 AM-8 PM], Wednesday: [7:30 AM-8 PM], Thursday: [7:30 AM-8 PM], Friday: [7:30 AM-8 PM], Saturday: [8:30 AM-8 PM]"
  },
  {
    "name": "IJ Sushi Burrito - UW",
    "fulladdress": "4141 University Wy NE, Seattle, WA 98105",
    "phone": "(206) 547-2168",
    "reviewCount": 105,
    "averageRating": 4.2,
    "googleMapsURL": "https://www.google.com/maps?cid=11074357231210745560",
    "latitude": 47.658107699999995,
    "longitude": -122.31342599999999,
    "website": "https://www.ijsushiburrito.com/",
    "openingHours": "Sunday: [11 AM-9 PM], Monday: [11 AM-9 PM], Tuesday: [11 AM-9 PM], Wednesday: [11 AM-9 PM], Thursday: [11 AM-9 PM], Friday: [11 AM-9 PM], Saturday: [11 AM-9 PM]"
  },
  {
    "name": "U:Don Fresh Japanese Noodle Station – University District",
    "description": "Counter-serve destination offering traditional Japanese noodle dishes in an informal environment.",
    "fulladdress": "4515 University Wy NE, Seattle, WA 98105",
    "phone": "(206) 453-3788",
    "reviewCount": 957,
    "averageRating": 4.4,
    "googleMapsURL": "https://www.google.com/maps?cid=11729193079486711628",
    "latitude": 47.6617673,
    "longitude": -122.31340349999999,
    "website": "https://freshudon.com/udon-university",
    "openingHours": "Sunday: [11 AM-8:30 PM], Monday: [11 AM-8:30 PM], Tuesday: [11 AM-8:30 PM], Wednesday: [11 AM-8:30 PM], Thursday: [11 AM-8:30 PM], Friday: [11 AM-9 PM], Saturday: [11 AM-9 PM]"
  },
  {
    "name": "Cafe on the Ave",
    "description": "Coffeehouse with a big American menu of breakfast staples & sandwiches in comfy digs with free WiFi.",
    "fulladdress": "4201 University Wy NE, Seattle, WA 98105",
    "phone": "(206) 632-6001",
    "reviewCount": 1110,
    "averageRating": 4.1,
    "googleMapsURL": "https://www.google.com/maps?cid=17620804082658305030",
    "latitude": 47.6584089,
    "longitude": -122.31334919999999,
    "website": "https://cafeontheave.site/",
    "openingHours": "Sunday: [7 AM-11 PM], Monday: [7 AM-11 PM], Tuesday: [7 AM-11 PM], Wednesday: [7 AM-11 PM], Thursday: [7 AM-11 PM], Friday: [7 AM-2 AM], Saturday: [7 AM-2 AM]"
  },
  {
    "name": "District Market Oak",
    "fulladdress": "4200 E Stevens Way NE, Seattle, WA 98105",
    "reviewCount": 7,
    "averageRating": 4,
    "googleMapsURL": "https://www.google.com/maps?cid=2864863683456002950",
    "latitude": 47.6592274,
    "longitude": -122.3059504,
    "website": "https://hfs.uw.edu/Eat/dining-hours/District-Market-Oak",
    "openingHours": "Sunday: [8 AM-10 PM], Monday: [7 AM-10 PM], Tuesday: [7 AM-10 PM], Wednesday: [7 AM-10 PM], Thursday: [7 AM-10 PM], Friday: [7 AM-10 PM], Saturday: [8 AM-10 PM]"
  },
  {
    "name": "Korean Tofu House Express",
    "fulladdress": "4520 University Wy NE, Seattle, WA 98105",
    "phone": "(206) 922-3562",
    "reviewCount": 252,
    "averageRating": 4.5,
    "googleMapsURL": "https://www.google.com/maps?cid=18217290974209566400",
    "latitude": 47.662016,
    "longitude": -122.312922,
    "website": "https://koreantofuhouseexpress.com/",
    "openingHours": "Sunday: [11 AM-9 PM], Monday: [11 AM-9 PM], Tuesday: [11 AM-9 PM], Wednesday: [11 AM-9 PM], Thursday: [11 AM-9 PM], Friday: [11 AM-9 PM], Saturday: [11 AM-9 PM]"
  },
  {
    "name": "Husky Den",
    "fulladdress": "Husky Union Building, Seattle, WA 98195",
    "phone": "(206) 616-5270",
    "reviewCount": 73,
    "averageRating": 3.5,
    "googleMapsURL": "https://www.google.com/maps?cid=15530976709569491776",
    "latitude": 47.655335799999996,
    "longitude": -122.305094,
    "website": "https://www.hfs.washington.edu/dining/Default.aspx?id=3620",
    "openingHours": "Sunday: [Closed], Monday: [10:30 AM-2:30 PM], Tuesday: [10:30 AM-2:30 PM], Wednesday: [10:30 AM-2:30 PM], Thursday: [10:30 AM-2:30 PM], Friday: [10:30 AM-2:30 PM], Saturday: [Closed]"
  },
  {
    "name": "Kong Tofu House",
    "fulladdress": "George F. Russell Jr. Hall, 1414 NE 42nd St STE 103A, Seattle, WA 98105",
    "phone": "(206) 545-6783",
    "reviewCount": 206,
    "averageRating": 4,
    "googleMapsURL": "https://www.google.com/maps?cid=14212683441211791910",
    "latitude": 47.6584076,
    "longitude": -122.31233429999999,
    "website": "https://kongtofuhouseseattle.com/",
    "openingHours": "Sunday: [11 AM-9 PM], Monday: [10 AM-9 PM], Tuesday: [10 AM-9 PM], Wednesday: [10 AM-9 PM], Thursday: [10 AM-9 PM], Friday: [10 AM-9 PM], Saturday: [11 AM-9 PM]"
  },
  {
    "name": "Cultivate",
    "description": "Students prepare & serve locally sourced comfort fare at this cheery eatery for the UW community.",
    "fulladdress": "1218 NE Campus Pkwy, Seattle, WA 98105",
    "phone": "(206) 685-3622",
    "reviewCount": 144,
    "averageRating": 3.5,
    "googleMapsURL": "https://www.google.com/maps?cid=2918018531003763083",
    "latitude": 47.6564397,
    "longitude": -122.31520409999999,
    "openingHours": "Sunday: [Closed], Monday: [11 AM-2 PM], Tuesday: [11 AM-2 PM], Wednesday: [11 AM-2 PM], Thursday: [11 AM-2 PM], Friday: [11 AM-2 PM], Saturday: [Closed]"
  },
  {
    "name": "Korean Tofu House",
    "description": "Quick-serve Korean eatery is a casual, college-town go-to for bibimbop, soups & BBQ.",
    "fulladdress": "4142 Brooklyn Ave NE, Seattle, WA 98105",
    "phone": "(206) 632-3119",
    "reviewCount": 1076,
    "averageRating": 4.3,
    "googleMapsURL": "https://www.google.com/maps?cid=12517789751951196392",
    "latitude": 47.6582152,
    "longitude": -122.314067,
    "openingHours": "Sunday: [10 AM-9 PM], Monday: [10 AM-9 PM], Tuesday: [10 AM-9 PM], Wednesday: [10 AM-9 PM], Thursday: [10 AM-9 PM], Friday: [10 AM-9 PM], Saturday: [10 AM-9 PM]"
  }
]